{
"type": "FeatureCollection",
"name": "OZP_Location",
"crs": { "type": "name", "properties": { "name": "urn:ogc:def:crs:OGC:1.3:CRS84" } },
"features": [
{ "type": "Feature", "properties": { "Name": "H1", "description": "latitude: 22.28131<br>longitude: 114.1292", "latitude": "22.28131", "longitude": "114.1292" }, "geometry": { "type": "Point", "coordinates": [ 114.1292, 22.28131 ] } },
{ "type": "Feature", "properties": { "Name": "H3", "description": "latitude: 22.28612<br>longitude: 114.1421", "latitude": "22.28612", "longitude": "114.1421" }, "geometry": { "type": "Point", "coordinates": [ 114.1421, 22.28612 ] } },
{ "type": "Feature", "properties": { "Name": "H4", "description": "latitude: 22.28504<br>longitude: 114.1584", "latitude": "22.28504", "longitude": "114.1584" }, "geometry": { "type": "Point", "coordinates": [ 114.1584, 22.28504 ] } },
{ "type": "Feature", "properties": { "Name": "H11", "description": "latitude: 22.28241<br>longitude: 114.1458", "latitude": "22.28241", "longitude": "114.1458" }, "geometry": { "type": "Point", "coordinates": [ 114.1458, 22.28241 ] } },
{ "type": "Feature", "properties": { "Name": "H12", "description": "latitude: 22.28241<br>longitude: 114.1458", "latitude": "22.28241", "longitude": "114.1458" }, "geometry": { "type": "Point", "coordinates": [ 114.1458, 22.28241 ] } },
{ "type": "Feature", "properties": { "Name": "H14", "description": "latitude: 22.26992<br>longitude: 114.1507", "latitude": "22.26992", "longitude": "114.1507" }, "geometry": { "type": "Point", "coordinates": [ 114.1507, 22.26992 ] } },
{ "type": "Feature", "properties": { "Name": "H24", "description": "latitude: 22.28504<br>longitude: 114.1584", "latitude": "22.28504", "longitude": "114.1584" }, "geometry": { "type": "Point", "coordinates": [ 114.1584, 22.28504 ] } },
{ "type": "Feature", "properties": { "Name": "H8", "description": "latitude: 22.2882<br>longitude: 114.1996", "latitude": "22.2882", "longitude": "114.1996" }, "geometry": { "type": "Point", "coordinates": [ 114.1996, 22.2882 ] } },
{ "type": "Feature", "properties": { "Name": "H9", "description": "latitude: 22.2791<br>longitude: 114.2287", "latitude": "22.2791", "longitude": "114.2287" }, "geometry": { "type": "Point", "coordinates": [ 114.2287, 22.2791 ] } },
{ "type": "Feature", "properties": { "Name": "H20", "description": "latitude: 22.26478<br>longitude: 114.2372", "latitude": "22.26478", "longitude": "114.2372" }, "geometry": { "type": "Point", "coordinates": [ 114.2372, 22.26478 ] } },
{ "type": "Feature", "properties": { "Name": "H21", "description": "latitude: 22.28775<br>longitude: 114.2149", "latitude": "22.28775", "longitude": "114.2149" }, "geometry": { "type": "Point", "coordinates": [ 114.2149, 22.28775 ] } },
{ "type": "Feature", "properties": { "Name": "I-CC", "description": "latitude: 22.20961<br>longitude: 114.0296", "latitude": "22.20961", "longitude": "114.0296" }, "geometry": { "type": "Point", "coordinates": [ 114.0296, 22.20961 ] } },
{ "type": "Feature", "properties": { "Name": "I-CLK", "description": "latitude: 22.30691<br>longitude: 113.9182", "latitude": "22.30691", "longitude": "113.9182" }, "geometry": { "type": "Point", "coordinates": [ 113.9182, 22.30691 ] } },
{ "type": "Feature", "properties": { "Name": "I-DB", "description": "latitude: 22.29737<br>longitude: 114.0165", "latitude": "22.29737", "longitude": "114.0165" }, "geometry": { "type": "Point", "coordinates": [ 114.0165, 22.29737 ] } },
{ "type": "Feature", "properties": { "Name": "I-LI", "description": "latitude: 22.20944<br>longitude: 114.1498", "latitude": "22.20944", "longitude": "114.1498" }, "geometry": { "type": "Point", "coordinates": [ 114.1498, 22.20944 ] } },
{ "type": "Feature", "properties": { "Name": "I-PC", "description": "latitude: 22.28607<br>longitude: 114.0444", "latitude": "22.28607", "longitude": "114.0444" }, "geometry": { "type": "Point", "coordinates": [ 114.0444, 22.28607 ] } },
{ "type": "Feature", "properties": { "Name": "I-SHW", "description": "latitude: 22.31082<br>longitude: 113.9944", "latitude": "22.31082", "longitude": "113.9944" }, "geometry": { "type": "Point", "coordinates": [ 113.9944, 22.31082 ] } },
{ "type": "Feature", "properties": { "Name": "I-SKC", "description": "latitude: 22.19526<br>longitude: 113.9869", "latitude": "22.19526", "longitude": "113.9869" }, "geometry": { "type": "Point", "coordinates": [ 113.9869, 22.19526 ] } },
{ "type": "Feature", "properties": { "Name": "I-TCE", "description": "latitude: 22.28926<br>longitude: 113.9415", "latitude": "22.28926", "longitude": "113.9415" }, "geometry": { "type": "Point", "coordinates": [ 113.9415, 22.28926 ] } },
{ "type": "Feature", "properties": { "Name": "I-TCTC", "description": "latitude: 22.28926<br>longitude: 113.9415", "latitude": "22.28926", "longitude": "113.9415" }, "geometry": { "type": "Point", "coordinates": [ 113.9415, 22.28926 ] } },
{ "type": "Feature", "properties": { "Name": "I-TOTC", "description": "latitude: 22.25415<br>longitude: 113.8636", "latitude": "22.25415", "longitude": "113.8636" }, "geometry": { "type": "Point", "coordinates": [ 113.8636, 22.25415 ] } },
{ "type": "Feature", "properties": { "Name": "SLC", "description": "latitude: 22.23662<br>longitude: 113.9508", "latitude": "22.23662", "longitude": "113.9508" }, "geometry": { "type": "Point", "coordinates": [ 113.9508, 22.23662 ] } },
{ "type": "Feature", "properties": { "Name": "NE-PC", "description": "latitude: 22.54581<br>longitude: 114.4283", "latitude": "22.54581", "longitude": "114.4283" }, "geometry": { "type": "Point", "coordinates": [ 114.4283, 22.54581 ] } },
{ "type": "Feature", "properties": { "Name": "I-LWKS", "description": "latitude: 22.25097<br>longitude: 113.8876", "latitude": "22.25097", "longitude": "113.8876" }, "geometry": { "type": "Point", "coordinates": [ 113.8876, 22.25097 ] } },
{ "type": "Feature", "properties": { "Name": "I-MWF", "description": "latitude: 22.26905<br>longitude: 113.9974", "latitude": "22.26905", "longitude": "113.9974" }, "geometry": { "type": "Point", "coordinates": [ 113.9974, 22.26905 ] } },
{ "type": "Feature", "properties": { "Name": "I-NP", "description": "latitude: 22.25578<br>longitude: 113.9043", "latitude": "22.25578", "longitude": "113.9043" }, "geometry": { "type": "Point", "coordinates": [ 113.9043, 22.25578 ] } },
{ "type": "Feature", "properties": { "Name": "I-PTI", "description": "latitude: 22.17571<br>longitude: 114.276", "latitude": "22.17571", "longitude": "114.276" }, "geometry": { "type": "Point", "coordinates": [ 114.276, 22.17571 ] } },
{ "type": "Feature", "properties": { "Name": "I-TH", "description": "latitude: 22.29387<br>longitude: 113.9798", "latitude": "22.29387", "longitude": "113.9798" }, "geometry": { "type": "Point", "coordinates": [ 113.9798, 22.29387 ] } },
{ "type": "Feature", "properties": { "Name": "I-TCV", "description": "latitude: 22.28926<br>longitude: 113.9415", "latitude": "22.28926", "longitude": "113.9415" }, "geometry": { "type": "Point", "coordinates": [ 113.9415, 22.28926 ] } },
{ "type": "Feature", "properties": { "Name": "I-TOF", "description": "latitude: 22.2552<br>longitude: 113.8684", "latitude": "22.2552", "longitude": "113.8684" }, "geometry": { "type": "Point", "coordinates": [ 113.8684, 22.2552 ] } },
{ "type": "Feature", "properties": { "Name": "I-YO", "description": "latitude: 22.2336<br>longitude: 113.8503", "latitude": "22.2336", "longitude": "113.8503" }, "geometry": { "type": "Point", "coordinates": [ 113.8503, 22.2336 ] } },
{ "type": "Feature", "properties": { "Name": "K7", "description": "latitude: 22.3159<br>longitude: 114.1801", "latitude": "22.3159", "longitude": "114.1801" }, "geometry": { "type": "Point", "coordinates": [ 114.1801, 22.3159 ] } },
{ "type": "Feature", "properties": { "Name": "K9", "description": "latitude: 22.30319<br>longitude: 114.182", "latitude": "22.30319", "longitude": "114.182" }, "geometry": { "type": "Point", "coordinates": [ 114.182, 22.30319 ] } },
{ "type": "Feature", "properties": { "Name": "K10", "description": "latitude: 22.32154<br>longitude: 114.1933", "latitude": "22.32154", "longitude": "114.1933" }, "geometry": { "type": "Point", "coordinates": [ 114.1933, 22.32154 ] } },
{ "type": "Feature", "properties": { "Name": "K18", "description": "latitude: 22.33621<br>longitude: 114.1799", "latitude": "22.33621", "longitude": "114.1799" }, "geometry": { "type": "Point", "coordinates": [ 114.1799, 22.33621 ] } },
{ "type": "Feature", "properties": { "Name": "K22", "description": "latitude: 22.33011<br>longitude: 114.199", "latitude": "22.33011", "longitude": "114.199" }, "geometry": { "type": "Point", "coordinates": [ 114.199, 22.33011 ] } },
{ "type": "Feature", "properties": { "Name": "KC", "description": "latitude: 22.36096<br>longitude: 114.129", "latitude": "22.36096", "longitude": "114.129" }, "geometry": { "type": "Point", "coordinates": [ 114.129, 22.36096 ] } },
{ "type": "Feature", "properties": { "Name": "TY", "description": "latitude: 22.34442<br>longitude: 114.099", "latitude": "22.34442", "longitude": "114.099" }, "geometry": { "type": "Point", "coordinates": [ 114.099, 22.34442 ] } },
{ "type": "Feature", "properties": { "Name": "K13", "description": "latitude: 22.32347<br>longitude: 114.2141", "latitude": "22.32347", "longitude": "114.2141" }, "geometry": { "type": "Point", "coordinates": [ 114.2141, 22.32347 ] } },
{ "type": "Feature", "properties": { "Name": "K14N", "description": "latitude: 22.31294<br>longitude: 114.2256", "latitude": "22.31294", "longitude": "114.2256" }, "geometry": { "type": "Point", "coordinates": [ 114.2256, 22.31294 ] } },
{ "type": "Feature", "properties": { "Name": "K14S", "description": "latitude: 22.31294<br>longitude: 114.2256", "latitude": "22.31294", "longitude": "114.2256" }, "geometry": { "type": "Point", "coordinates": [ 114.2256, 22.31294 ] } },
{ "type": "Feature", "properties": { "Name": "K15", "description": "latitude: 22.2887<br>longitude: 114.2386", "latitude": "22.2887", "longitude": "114.2386" }, "geometry": { "type": "Point", "coordinates": [ 114.2386, 22.2887 ] } },
{ "type": "Feature", "properties": { "Name": "FLN", "description": "latitude: 22.49463<br>longitude: 114.1383", "latitude": "22.49463", "longitude": "114.1383" }, "geometry": { "type": "Point", "coordinates": [ 114.1383, 22.49463 ] } },
{ "type": "Feature", "properties": { "Name": "FSS", "description": "latitude: 22.49463<br>longitude: 114.1383", "latitude": "22.49463", "longitude": "114.1383" }, "geometry": { "type": "Point", "coordinates": [ 114.1383, 22.49463 ] } },
{ "type": "Feature", "properties": { "Name": "KTN", "description": "latitude: 22.50427<br>longitude: 114.1028", "latitude": "22.50427", "longitude": "114.1028" }, "geometry": { "type": "Point", "coordinates": [ 114.1028, 22.50427 ] } },
{ "type": "Feature", "properties": { "Name": "NE-FTA", "description": "latitude: 22.52863<br>longitude: 114.1289", "latitude": "22.52863", "longitude": "114.1289" }, "geometry": { "type": "Point", "coordinates": [ 114.1289, 22.52863 ] } },
{ "type": "Feature", "properties": { "Name": "NE-HLH", "description": "latitude: 22.52761<br>longitude: 114.1406", "latitude": "22.52761", "longitude": "114.1406" }, "geometry": { "type": "Point", "coordinates": [ 114.1406, 22.52761 ] } },
{ "type": "Feature", "properties": { "Name": "NE-HT", "description": "latitude: 22.50152<br>longitude: 114.1745", "latitude": "22.50152", "longitude": "114.1745" }, "geometry": { "type": "Point", "coordinates": [ 114.1745, 22.50152 ] } },
{ "type": "Feature", "properties": { "Name": "NE-KP", "description": "latitude: 22.52757<br>longitude: 114.2366", "latitude": "22.52757", "longitude": "114.2366" }, "geometry": { "type": "Point", "coordinates": [ 114.2366, 22.52757 ] } },
{ "type": "Feature", "properties": { "Name": "NE-LCW", "description": "latitude: 22.52682<br>longitude: 114.2594", "latitude": "22.52682", "longitude": "114.2594" }, "geometry": { "type": "Point", "coordinates": [ 114.2594, 22.52682 ] } },
{ "type": "Feature", "properties": { "Name": "NE-LK", "description": "latitude: 22.51863<br>longitude: 114.2152", "latitude": "22.51863", "longitude": "114.2152" }, "geometry": { "type": "Point", "coordinates": [ 114.2152, 22.51863 ] } },
{ "type": "Feature", "properties": { "Name": "NE-LMH", "description": "latitude: 22.55095<br>longitude: 114.1813", "latitude": "22.55095", "longitude": "114.1813" }, "geometry": { "type": "Point", "coordinates": [ 114.1813, 22.55095 ] } },
{ "type": "Feature", "properties": { "Name": "NE-LYT", "description": "latitude: 22.50343<br>longitude: 114.1508", "latitude": "22.50343", "longitude": "114.1508" }, "geometry": { "type": "Point", "coordinates": [ 114.1508, 22.50343 ] } },
{ "type": "Feature", "properties": { "Name": "NE-MKT", "description": "latitude: 22.53903<br>longitude: 114.1295", "latitude": "22.53903", "longitude": "114.1295" }, "geometry": { "type": "Point", "coordinates": [ 114.1295, 22.53903 ] } },
{ "type": "Feature", "properties": { "Name": "NE-MTL", "description": "latitude: 22.52121<br>longitude: 114.0954", "latitude": "22.52121", "longitude": "114.0954" }, "geometry": { "type": "Point", "coordinates": [ 114.0954, 22.52121 ] } },
{ "type": "Feature", "properties": { "Name": "NE-MUP", "description": "latitude: 22.52659<br>longitude: 114.1835", "latitude": "22.52659", "longitude": "114.1835" }, "geometry": { "type": "Point", "coordinates": [ 114.1835, 22.52659 ] } },
{ "type": "Feature", "properties": { "Name": "NE-PK", "description": "latitude: 22.49047<br>longitude: 114.1224", "latitude": "22.49047", "longitude": "114.1224" }, "geometry": { "type": "Point", "coordinates": [ 114.1224, 22.49047 ] } },
{ "type": "Feature", "properties": { "Name": "NE-SLP", "description": "latitude: 22.53634<br>longitude: 114.2517", "latitude": "22.53634", "longitude": "114.2517" }, "geometry": { "type": "Point", "coordinates": [ 114.2517, 22.53634 ] } },
{ "type": "Feature", "properties": { "Name": "NE-STK", "description": "latitude: 22.54563<br>longitude: 114.2237", "latitude": "22.54563", "longitude": "114.2237" }, "geometry": { "type": "Point", "coordinates": [ 114.2237, 22.54563 ] } },
{ "type": "Feature", "properties": { "Name": "NE-TKL", "description": "latitude: 22.52547<br>longitude: 114.1625", "latitude": "22.52547", "longitude": "114.1625" }, "geometry": { "type": "Point", "coordinates": [ 114.1625, 22.52547 ] } },
{ "type": "Feature", "properties": { "Name": "NE-TKLN", "description": "latitude: 22.53851<br>longitude: 114.158", "latitude": "22.53851", "longitude": "114.158" }, "geometry": { "type": "Point", "coordinates": [ 114.158, 22.53851 ] } },
{ "type": "Feature", "properties": { "Name": "NE-WKS", "description": "latitude: 22.53564<br>longitude: 114.1765", "latitude": "22.53564", "longitude": "114.1765" }, "geometry": { "type": "Point", "coordinates": [ 114.1765, 22.53564 ] } },
{ "type": "Feature", "properties": { "Name": "NE-WKT", "description": "latitude: 22.50668<br>longitude: 114.2435", "latitude": "22.50668", "longitude": "114.2435" }, "geometry": { "type": "Point", "coordinates": [ 114.2435, 22.50668 ] } },
{ "type": "Feature", "properties": { "Name": "NE-KTS", "description": "latitude: 22.50427<br>longitude: 114.1028", "latitude": "22.50427", "longitude": "114.1028" }, "geometry": { "type": "Point", "coordinates": [ 114.1028, 22.50427 ] } },
{ "type": "Feature", "properties": { "Name": "SK-SKT", "description": "latitude: 22.38225<br>longitude: 114.2728", "latitude": "22.38225", "longitude": "114.2728" }, "geometry": { "type": "Point", "coordinates": [ 114.2728, 22.38225 ] } },
{ "type": "Feature", "properties": { "Name": "TKO", "description": "latitude: 22.29235<br>longitude: 114.2578", "latitude": "22.29235", "longitude": "114.2578" }, "geometry": { "type": "Point", "coordinates": [ 114.2578, 22.29235 ] } },
{ "type": "Feature", "properties": { "Name": "SK-CWBN", "description": "latitude: 22.28467<br>longitude: 114.2963", "latitude": "22.28467", "longitude": "114.2963" }, "geometry": { "type": "Point", "coordinates": [ 114.2963, 22.28467 ] } },
{ "type": "Feature", "properties": { "Name": "SK-CWBS", "description": "latitude: 22.28467<br>longitude: 114.2963", "latitude": "22.28467", "longitude": "114.2963" }, "geometry": { "type": "Point", "coordinates": [ 114.2963, 22.28467 ] } },
{ "type": "Feature", "properties": { "Name": "SK-HC", "description": "latitude: 22.35588<br>longitude: 114.2471", "latitude": "22.35588", "longitude": "114.2471" }, "geometry": { "type": "Point", "coordinates": [ 114.2471, 22.35588 ] } },
{ "type": "Feature", "properties": { "Name": "SK-HH", "description": "latitude: 22.3641<br>longitude: 114.2575", "latitude": "22.3641", "longitude": "114.2575" }, "geometry": { "type": "Point", "coordinates": [ 114.2575, 22.3641 ] } },
{ "type": "Feature", "properties": { "Name": "SK-PK", "description": "latitude: 22.37982<br>longitude: 114.2581", "latitude": "22.37982", "longitude": "114.2581" }, "geometry": { "type": "Point", "coordinates": [ 114.2581, 22.37982 ] } },
{ "type": "Feature", "properties": { "Name": "SK-PL", "description": "latitude: 22.35328<br>longitude: 114.3608", "latitude": "22.35328", "longitude": "114.3608" }, "geometry": { "type": "Point", "coordinates": [ 114.3608, 22.35328 ] } },
{ "type": "Feature", "properties": { "Name": "SK-TA", "description": "latitude: 22.34806<br>longitude: 114.3553", "latitude": "22.34806", "longitude": "114.3553" }, "geometry": { "type": "Point", "coordinates": [ 114.3553, 22.34806 ] } },
{ "type": "Feature", "properties": { "Name": "SK-TLS", "description": "latitude: 22.33604<br>longitude: 114.2382", "latitude": "22.33604", "longitude": "114.2382" }, "geometry": { "type": "Point", "coordinates": [ 114.2382, 22.33604 ] } },
{ "type": "Feature", "properties": { "Name": "SK-TLW", "description": "latitude: 22.39973<br>longitude: 114.3987", "latitude": "22.39973", "longitude": "114.3987" }, "geometry": { "type": "Point", "coordinates": [ 114.3987, 22.39973 ] } },
{ "type": "Feature", "properties": { "Name": "SK-TMT", "description": "latitude: 22.39385<br>longitude: 114.3007", "latitude": "22.39385", "longitude": "114.3007" }, "geometry": { "type": "Point", "coordinates": [ 114.3007, 22.39385 ] } },
{ "type": "Feature", "properties": { "Name": "MOS", "description": "latitude: 22.42281<br>longitude: 114.2302", "latitude": "22.42281", "longitude": "114.2302" }, "geometry": { "type": "Point", "coordinates": [ 114.2302, 22.42281 ] } },
{ "type": "Feature", "properties": { "Name": "ST", "description": "latitude: 22.38356<br>longitude: 114.19", "latitude": "22.38356", "longitude": "114.19" }, "geometry": { "type": "Point", "coordinates": [ 114.19, 22.38356 ] } },
{ "type": "Feature", "properties": { "Name": "ST-KYS", "description": "latitude: 22.37184<br>longitude: 114.1961", "latitude": "22.37184", "longitude": "114.1961" }, "geometry": { "type": "Point", "coordinates": [ 114.1961, 22.37184 ] } },
{ "type": "Feature", "properties": { "Name": "ST-MP", "description": "latitude: 22.38479<br>longitude: 114.2429", "latitude": "22.38479", "longitude": "114.2429" }, "geometry": { "type": "Point", "coordinates": [ 114.2429, 22.38479 ] } },
{ "type": "Feature", "properties": { "Name": "K4", "description": "latitude: 22.33228<br>longitude: 114.1688", "latitude": "22.33228", "longitude": "114.1688" }, "geometry": { "type": "Point", "coordinates": [ 114.1688, 22.33228 ] } },
{ "type": "Feature", "properties": { "Name": "K5", "description": "latitude: 22.33551<br>longitude: 114.1562", "latitude": "22.33551", "longitude": "114.1562" }, "geometry": { "type": "Point", "coordinates": [ 114.1562, 22.33551 ] } },
{ "type": "Feature", "properties": { "Name": "K16", "description": "latitude: 22.33652<br>longitude: 114.1481", "latitude": "22.33652", "longitude": "114.1481" }, "geometry": { "type": "Point", "coordinates": [ 114.1481, 22.33652 ] } },
{ "type": "Feature", "properties": { "Name": "SC", "description": "latitude: 22.32191<br>longitude: 114.1383", "latitude": "22.32191", "longitude": "114.1383" }, "geometry": { "type": "Point", "coordinates": [ 114.1383, 22.32191 ] } },
{ "type": "Feature", "properties": { "Name": "H10", "description": "latitude: 22.26136<br>longitude: 114.1368", "latitude": "22.26136", "longitude": "114.1368" }, "geometry": { "type": "Point", "coordinates": [ 114.1368, 22.26136 ] } },
{ "type": "Feature", "properties": { "Name": "H15", "description": "latitude: 22.24877<br>longitude: 114.156", "latitude": "22.24877", "longitude": "114.156" }, "geometry": { "type": "Point", "coordinates": [ 114.156, 22.24877 ] } },
{ "type": "Feature", "properties": { "Name": "H17", "description": "latitude: 22.24763<br>longitude: 114.182", "latitude": "22.24763", "longitude": "114.182" }, "geometry": { "type": "Point", "coordinates": [ 114.182, 22.24763 ] } },
{ "type": "Feature", "properties": { "Name": "H18", "description": "latitude: 22.23485<br>longitude: 114.2255", "latitude": "22.23485", "longitude": "114.2255" }, "geometry": { "type": "Point", "coordinates": [ 114.2255, 22.23485 ] } },
{ "type": "Feature", "properties": { "Name": "H19", "description": "latitude: 22.21439<br>longitude: 114.2159", "latitude": "22.21439", "longitude": "114.2159" }, "geometry": { "type": "Point", "coordinates": [ 114.2159, 22.21439 ] } },
{ "type": "Feature", "properties": { "Name": "PSK", "description": "latitude: 22.42751<br>longitude: 114.2024", "latitude": "22.42751", "longitude": "114.2024" }, "geometry": { "type": "Point", "coordinates": [ 114.2024, 22.42751 ] } },
{ "type": "Feature", "properties": { "Name": "TP", "description": "latitude: 22.4494<br>longitude: 114.1711", "latitude": "22.4494", "longitude": "114.1711" }, "geometry": { "type": "Point", "coordinates": [ 114.1711, 22.4494 ] } },
{ "type": "Feature", "properties": { "Name": "NE-CK", "description": "latitude: 22.42134<br>longitude: 114.3502", "latitude": "22.42134", "longitude": "114.3502" }, "geometry": { "type": "Point", "coordinates": [ 114.3502, 22.42134 ] } },
{ "type": "Feature", "properties": { "Name": "NE-CS", "description": "latitude: 22.42964<br>longitude: 114.3098", "latitude": "22.42964", "longitude": "114.3098" }, "geometry": { "type": "Point", "coordinates": [ 114.3098, 22.42964 ] } },
{ "type": "Feature", "properties": { "Name": "NE-HH", "description": "latitude: 22.46045<br>longitude: 114.328", "latitude": "22.46045", "longitude": "114.328" }, "geometry": { "type": "Point", "coordinates": [ 114.328, 22.46045 ] } },
{ "type": "Feature", "properties": { "Name": "NE-KLH", "description": "latitude: 22.47351<br>longitude: 114.1541", "latitude": "22.47351", "longitude": "114.1541" }, "geometry": { "type": "Point", "coordinates": [ 114.1541, 22.47351 ] } },
{ "type": "Feature", "properties": { "Name": "NE-KLW", "description": "latitude: 22.45937<br>longitude: 114.3625", "latitude": "22.45937", "longitude": "114.3625" }, "geometry": { "type": "Point", "coordinates": [ 114.3625, 22.45937 ] } },
{ "type": "Feature", "properties": { "Name": "NE-LT", "description": "latitude: 22.4187<br>longitude: 113.9819", "latitude": "22.4187", "longitude": "113.9819" }, "geometry": { "type": "Point", "coordinates": [ 113.9819, 22.4187 ] } },
{ "type": "Feature", "properties": { "Name": "NE-PSO", "description": "latitude: 22.44812<br>longitude: 114.3208", "latitude": "22.44812", "longitude": "114.3208" }, "geometry": { "type": "Point", "coordinates": [ 114.3208, 22.44812 ] } },
{ "type": "Feature", "properties": { "Name": "NE-SC", "description": "latitude: 22.44111<br>longitude: 114.2882", "latitude": "22.44111", "longitude": "114.2882" }, "geometry": { "type": "Point", "coordinates": [ 114.2882, 22.44111 ] } },
{ "type": "Feature", "properties": { "Name": "NE-SLT", "description": "latitude: 22.47742<br>longitude: 114.1827", "latitude": "22.47742", "longitude": "114.1827" }, "geometry": { "type": "Point", "coordinates": [ 114.1827, 22.47742 ] } },
{ "type": "Feature", "properties": { "Name": "NE-SSH", "description": "latitude: 22.41814<br>longitude: 114.2619", "latitude": "22.41814", "longitude": "114.2619" }, "geometry": { "type": "Point", "coordinates": [ 114.2619, 22.41814 ] } },
{ "type": "Feature", "properties": { "Name": "NE-TK", "description": "latitude: 22.47283<br>longitude: 114.2194", "latitude": "22.47283", "longitude": "114.2194" }, "geometry": { "type": "Point", "coordinates": [ 114.2194, 22.47283 ] } },
{ "type": "Feature", "properties": { "Name": "NE-TKP", "description": "latitude: 22.42747<br>longitude: 114.3384", "latitude": "22.42747", "longitude": "114.3384" }, "geometry": { "type": "Point", "coordinates": [ 114.3384, 22.42747 ] } },
{ "type": "Feature", "properties": { "Name": "NE-TPK", "description": "latitude: 22.43604<br>longitude: 114.1909", "latitude": "22.43604", "longitude": "114.1909" }, "geometry": { "type": "Point", "coordinates": [ 114.1909, 22.43604 ] } },
{ "type": "Feature", "properties": { "Name": "NE-TT", "description": "latitude: 22.43122<br>longitude: 114.3264", "latitude": "22.43122", "longitude": "114.3264" }, "geometry": { "type": "Point", "coordinates": [ 114.3264, 22.43122 ] } },
{ "type": "Feature", "properties": { "Name": "NE-YSO", "description": "latitude: 22.42714<br>longitude: 114.293", "latitude": "22.42714", "longitude": "114.293" }, "geometry": { "type": "Point", "coordinates": [ 114.293, 22.42714 ] } },
{ "type": "Feature", "properties": { "Name": "NE-YTT", "description": "latitude: 22.45111<br>longitude: 114.2138", "latitude": "22.45111", "longitude": "114.2138" }, "geometry": { "type": "Point", "coordinates": [ 114.2138, 22.45111 ] } },
{ "type": "Feature", "properties": { "Name": "I-NEL", "description": "latitude: 22.28995<br>longitude: 113.9432", "latitude": "22.28995", "longitude": "113.9432" }, "geometry": { "type": "Point", "coordinates": [ 113.9432, 22.28995 ] } },
{ "type": "Feature", "properties": { "Name": "I-MWI", "description": "latitude: 22.34913<br>longitude: 114.0582", "latitude": "22.34913", "longitude": "114.0582" }, "geometry": { "type": "Point", "coordinates": [ 114.0582, 22.34913 ] } },
{ "type": "Feature", "properties": { "Name": "TW", "description": "latitude: 22.37166<br>longitude: 114.1135", "latitude": "22.37166", "longitude": "114.1135" }, "geometry": { "type": "Point", "coordinates": [ 114.1135, 22.37166 ] } },
{ "type": "Feature", "properties": { "Name": "TWW", "description": "latitude: 22.37166<br>longitude: 114.1135", "latitude": "22.37166", "longitude": "114.1135" }, "geometry": { "type": "Point", "coordinates": [ 114.1135, 22.37166 ] } },
{ "type": "Feature", "properties": { "Name": "TW-CLHFS", "description": "latitude: 22.39479<br>longitude: 114.1088", "latitude": "22.39479", "longitude": "114.1088" }, "geometry": { "type": "Point", "coordinates": [ 114.1088, 22.39479 ] } },
{ "type": "Feature", "properties": { "Name": "TM", "description": "latitude: 22.39122<br>longitude: 113.9763", "latitude": "22.39122", "longitude": "113.9763" }, "geometry": { "type": "Point", "coordinates": [ 113.9763, 22.39122 ] } },
{ "type": "Feature", "properties": { "Name": "TM-LTYY", "description": "latitude: 22.4187<br>longitude: 113.9819", "latitude": "22.4187", "longitude": "113.9819" }, "geometry": { "type": "Point", "coordinates": [ 113.9819, 22.4187 ] } },
{ "type": "Feature", "properties": { "Name": "TM-SKW", "description": "latitude: 22.37544<br>longitude: 114.0038", "latitude": "22.37544", "longitude": "114.0038" }, "geometry": { "type": "Point", "coordinates": [ 114.0038, 22.37544 ] } },
{ "type": "Feature", "properties": { "Name": "TM-TFT", "description": "latitude: 22.39442<br>longitude: 114.0624", "latitude": "22.39442", "longitude": "114.0624" }, "geometry": { "type": "Point", "coordinates": [ 114.0624, 22.39442 ] } },
{ "type": "Feature", "properties": { "Name": "H5", "description": "latitude: 22.27901<br>longitude: 114.1725", "latitude": "22.27901", "longitude": "114.1725" }, "geometry": { "type": "Point", "coordinates": [ 114.1725, 22.27901 ] } },
{ "type": "Feature", "properties": { "Name": "H6", "description": "latitude: 22.28021<br>longitude: 114.1848", "latitude": "22.28021", "longitude": "114.1848" }, "geometry": { "type": "Point", "coordinates": [ 114.1848, 22.28021 ] } },
{ "type": "Feature", "properties": { "Name": "H7", "description": "latitude: 22.27349<br>longitude: 114.1843", "latitude": "22.27349", "longitude": "114.1843" }, "geometry": { "type": "Point", "coordinates": [ 114.1843, 22.27349 ] } },
{ "type": "Feature", "properties": { "Name": "H13", "description": "latitude: 22.26636<br>longitude: 114.1983", "latitude": "22.26636", "longitude": "114.1983" }, "geometry": { "type": "Point", "coordinates": [ 114.1983, 22.26636 ] } },
{ "type": "Feature", "properties": { "Name": "H25", "description": "latitude: 22.27901<br>longitude: 114.1725", "latitude": "22.27901", "longitude": "114.1725" }, "geometry": { "type": "Point", "coordinates": [ 114.1725, 22.27901 ] } },
{ "type": "Feature", "properties": { "Name": "K8", "description": "latitude: 22.33354<br>longitude: 114.1928", "latitude": "22.33354", "longitude": "114.1928" }, "geometry": { "type": "Point", "coordinates": [ 114.1928, 22.33354 ] } },
{ "type": "Feature", "properties": { "Name": "K11", "description": "latitude: 22.33855<br>longitude: 114.1974", "latitude": "22.33855", "longitude": "114.1974" }, "geometry": { "type": "Point", "coordinates": [ 114.1974, 22.33855 ] } },
{ "type": "Feature", "properties": { "Name": "K12", "description": "latitude: 22.33621<br>longitude: 114.2121", "latitude": "22.33621", "longitude": "114.2121" }, "geometry": { "type": "Point", "coordinates": [ 114.2121, 22.33621 ] } },
{ "type": "Feature", "properties": { "Name": "K1", "description": "latitude: 22.29887<br>longitude: 114.1741", "latitude": "22.29887", "longitude": "114.1741" }, "geometry": { "type": "Point", "coordinates": [ 114.1741, 22.29887 ] } },
{ "type": "Feature", "properties": { "Name": "K2", "description": "latitude: 22.31236<br>longitude: 114.1708", "latitude": "22.31236", "longitude": "114.1708" }, "geometry": { "type": "Point", "coordinates": [ 114.1708, 22.31236 ] } },
{ "type": "Feature", "properties": { "Name": "K3", "description": "latitude: 22.31975<br>longitude: 114.1694", "latitude": "22.31975", "longitude": "114.1694" }, "geometry": { "type": "Point", "coordinates": [ 114.1694, 22.31975 ] } },
{ "type": "Feature", "properties": { "Name": "K20", "description": "latitude: 22.31165<br>longitude: 114.1768", "latitude": "22.31165", "longitude": "114.1768" }, "geometry": { "type": "Point", "coordinates": [ 114.1768, 22.31165 ] } },
{ "type": "Feature", "properties": { "Name": "HSK", "description": "latitude: 22.43366<br>longitude: 113.9975", "latitude": "22.43366", "longitude": "113.9975" }, "geometry": { "type": "Point", "coordinates": [ 113.9975, 22.43366 ] } },
{ "type": "Feature", "properties": { "Name": "LMCL", "description": "latitude: 22.51497<br>longitude: 114.0656", "latitude": "22.51497", "longitude": "114.0656" }, "geometry": { "type": "Point", "coordinates": [ 114.0656, 22.51497 ] } },
{ "type": "Feature", "properties": { "Name": "TSW", "description": "latitude: 22.45961<br>longitude: 114.0022", "latitude": "22.45961", "longitude": "114.0022" }, "geometry": { "type": "Point", "coordinates": [ 114.0022, 22.45961 ] } },
{ "type": "Feature", "properties": { "Name": "YL", "description": "latitude: 22.44449<br>longitude: 114.0288", "latitude": "22.44449", "longitude": "114.0288" }, "geometry": { "type": "Point", "coordinates": [ 114.0288, 22.44449 ] } },
{ "type": "Feature", "properties": { "Name": "YL-KTN", "description": "latitude: 22.43927<br>longitude: 114.0655", "latitude": "22.43927", "longitude": "114.0655" }, "geometry": { "type": "Point", "coordinates": [ 114.0655, 22.43927 ] } },
{ "type": "Feature", "properties": { "Name": "YL-KTS", "description": "latitude: 22.43927<br>longitude: 114.0655", "latitude": "22.43927", "longitude": "114.0655" }, "geometry": { "type": "Point", "coordinates": [ 114.0655, 22.43927 ] } },
{ "type": "Feature", "properties": { "Name": "YL-MP", "description": "latitude: 22.49978<br>longitude: 114.0521", "latitude": "22.49978", "longitude": "114.0521" }, "geometry": { "type": "Point", "coordinates": [ 114.0521, 22.49978 ] } },
{ "type": "Feature", "properties": { "Name": "YL-NSW", "description": "latitude: 22.4624<br>longitude: 114.038", "latitude": "22.4624", "longitude": "114.038" }, "geometry": { "type": "Point", "coordinates": [ 114.038, 22.4624 ] } },
{ "type": "Feature", "properties": { "Name": "YL-NTM", "description": "latitude: 22.47482<br>longitude: 114.0707", "latitude": "22.47482", "longitude": "114.0707" }, "geometry": { "type": "Point", "coordinates": [ 114.0707, 22.47482 ] } },
{ "type": "Feature", "properties": { "Name": "YL-PH", "description": "latitude: 22.43672<br>longitude: 114.0915", "latitude": "22.43672", "longitude": "114.0915" }, "geometry": { "type": "Point", "coordinates": [ 114.0915, 22.43672 ] } },
{ "type": "Feature", "properties": { "Name": "YL-SK", "description": "latitude: 22.43124<br>longitude: 114.0931", "latitude": "22.43124", "longitude": "114.0931" }, "geometry": { "type": "Point", "coordinates": [ 114.0931, 22.43124 ] } },
{ "type": "Feature", "properties": { "Name": "YL-ST", "description": "latitude: 22.50237<br>longitude: 114.0695", "latitude": "22.50237", "longitude": "114.0695" }, "geometry": { "type": "Point", "coordinates": [ 114.0695, 22.50237 ] } },
{ "type": "Feature", "properties": { "Name": "YL-HTF", "description": "latitude: 22.4458<br>longitude: 113.9882", "latitude": "22.4458", "longitude": "113.9882" }, "geometry": { "type": "Point", "coordinates": [ 113.9882, 22.4458 ] } },
{ "type": "Feature", "properties": { "Name": "YL-LFS", "description": "latitude: 22.46737<br>longitude: 113.9842", "latitude": "22.46737", "longitude": "113.9842" }, "geometry": { "type": "Point", "coordinates": [ 113.9842, 22.46737 ] } },
{ "type": "Feature", "properties": { "Name": "YL-PN", "description": "latitude: 22.44818<br>longitude: 113.9563", "latitude": "22.44818", "longitude": "113.9563" }, "geometry": { "type": "Point", "coordinates": [ 113.9563, 22.44818 ] } },
{ "type": "Feature", "properties": { "Name": "YL-PS", "description": "latitude: 22.44288<br>longitude: 114.012", "latitude": "22.44288", "longitude": "114.012" }, "geometry": { "type": "Point", "coordinates": [ 114.012, 22.44288 ] } },
{ "type": "Feature", "properties": { "Name": "YL-TYST", "description": "latitude: 22.43993<br>longitude: 114.0105", "latitude": "22.43993", "longitude": "114.0105" }, "geometry": { "type": "Point", "coordinates": [ 114.0105, 22.43993 ] } },
{ "type": "Feature", "properties": { "Name": "NE-TT", "description": "latitude: 22.436926<br>longitude: 114.331963", "latitude": "22.436926", "longitude": "114.331963" }, "geometry": { "type": "Point", "coordinates": [ 114.331963, 22.436926 ] } }
]
}
